[{"name":"Bagerhat","bn":"বাগেরহাট","lat":22.65157,"lon":89.78594},{"name":"Bandarban","bn":"বান্দরবান","lat":22.19533,"lon":92.21838},{"name":"Barguna","bn":"বরগুনা","lat":22.15918,"lon":90.12558},{"name":"Barisal","bn":"বরিশাল","lat":22.70042,"lon":90.37316},{"name":"Bhola","bn":"ভোলা","lat":22.68592,"lon":90.64818},{"name":"Bogura","bn":"বগুড়া","lat":24.84652,"lon":89.37775},{"name":"Brahmanbaria","bn":"ব্রাহ্মণবাড়িয়া","lat":23.95709,"lon":91.11193},{"name":"Chandpur","bn":"চাঁদপুর","lat":23.23326,"lon":90.67129},{"name":"Chapainawabganj","bn":"চাঁপাইনবাবগঞ্জ","lat":24.5965,"lon":88.27751},{"name":"Chattogram","bn":"চট্টগ্রাম","lat":22.33511,"lon":91.83407},{"name":"Chuadanga","bn":"চুয়াডাঙ্গা","lat":23.6402,"lon":88.84184},{"name":"Comilla","bn":"কুমিল্লা","lat":23.46827,"lon":91.17881},{"name":"Coxsbazar","bn":"কক্সবাজার","lat":21.44316,"lon":91.97382},{"name":"Dhaka","bn":"ঢাকা","lat":23.71153,"lon":90.41115},{"name":"Dinajpur","bn":"দিনাজপুর","lat":25.62171,"lon":88.63545},{"name":"Faridpur","bn":"ফরিদপুর","lat":23.60708,"lon":89.84294},{"name":"Feni","bn":"ফেনী","lat":23.02323,"lon":91.38408},{"name":"Gaibandha","bn":"গাইবান্ধা","lat":25.32875,"lon":89.52809},{"name":"Gazipur","bn":"গাজীপুর","lat":24.00229,"lon":90.42643},{"name":"Gopalganj","bn":"গোপালগঞ্জ","lat":23.00509,"lon":89.82661},{"name":"Habiganj","bn":"হবিগঞ্জ","lat":24.37495,"lon":91.41553},{"name":"Jamalpur","bn":"জামালপুর","lat":24.93753,"lon":89.93778},{"name":"Jashore","bn":"যশোর","lat":23.16643,"lon":89.20811},{"name":"Jhalakathi","bn":"ঝালকাঠি","lat":22.64227,"lon":90.20039},{"name":"Jhenaidah","bn":"ঝিনাইদহ","lat":23.54482,"lon":89.15392},{"name":"Joypurhat","bn":"জয়পুরহাট","lat":25.09637,"lon":89.04004},{"name":"Khagrachhari","bn":"খাগড়াছড়ি","lat":23.11929,"lon":91.98466},{"name":"Khulna","bn":"খুলনা","lat":22.81577,"lon":89.56868},{"name":"Kishoreganj","bn":"কিশোরগঞ্জ","lat":24.44494,"lon":90.77657},{"name":"Kurigram","bn":"কুড়িগ্রাম","lat":25.80544,"lon":89.63617},{"name":"Kushtia","bn":"কুষ্টিয়া","lat":23.90126,"lon":89.12048},{"name":"Lakshmipur","bn":"লক্ষ্মীপুর","lat":22.94248,"lon":90.84118},{"name":"Lalmonirhat","bn":"লালমনিরহাট","lat":25.91655,"lon":89.45324},{"name":"Madaripur","bn":"মাদারীপুর","lat":23.1641,"lon":90.18968},{"name":"Magura","bn":"মাগুরা","lat":23.48734,"lon":89.41996},{"name":"Manikganj","bn":"মানিকগঞ্জ","lat":23.86023,"lon":90.00183},{"name":"Meherpur","bn":"মেহেরপুর","lat":23.76221,"lon":88.63182},{"name":"Moulvibazar","bn":"মৌলভীবাজার","lat":24.48293,"lon":91.77742},{"name":"Munshiganj","bn":"মুন্সিগঞ্জ","lat":23.54357,"lon":90.53543},{"name":"Mymensingh","bn":"ময়মনসিংহ","lat":24.74657,"lon":90.40721},{"name":"Naogaon","bn":"নওগাঁ","lat":24.83256,"lon":88.92485},{"name":"Narail","bn":"নড়াইল","lat":23.17253,"lon":89.51267},{"name":"Narayanganj","bn":"নারায়ণগঞ্জ","lat":23.63366,"lon":90.49648},{"name":"Narsingdi","bn":"নরসিংদী","lat":23.93223,"lon":90.71541},{"name":"Natore","bn":"নাটোর","lat":24.42056,"lon":89.00028},{"name":"Netrokona","bn":"নেত্রকোণা","lat":24.87095,"lon":90.72789},{"name":"Nilphamari","bn":"নীলফামারী","lat":25.93179,"lon":88.85601},{"name":"Noakhali","bn":"নোয়াখালী","lat":22.86956,"lon":91.0994},{"name":"Pabna","bn":"পাবনা","lat":23.99852,"lon":89.23364},{"name":"Panchagarh","bn":"পঞ্চগড়","lat":26.3411,"lon":88.55416},{"name":"Patuakhali","bn":"পটুয়াখালী","lat":22.35963,"lon":90.32987},{"name":"Pirojpur","bn":"পিরোজপুর","lat":22.57814,"lon":89.99839},{"name":"Rajbari","bn":"রাজবাড়ী","lat":23.75743,"lon":89.64447},{"name":"Rajshahi","bn":"রাজশাহী","lat":24.3723,"lon":88.56308},{"name":"Rangamati","bn":"রাঙ্গামাটি","lat":22.65561,"lon":92.17541},{"name":"Rangpur","bn":"রংপুর","lat":25.75581,"lon":89.24446},{"name":"Satkhira","bn":"সাতক্ষীরা","lat":22.71809,"lon":89.0687},{"name":"Shariatpur","bn":"শরীয়তপুর","lat":23.20602,"lon":90.34777},{"name":"Sherpur","bn":"শেরপুর","lat":25.02049,"lon":90.0153},{"name":"Sirajganj","bn":"সিরাজগঞ্জ","lat":24.4534,"lon":89.70068},{"name":"Sunamganj","bn":"সুনামগঞ্জ","lat":25.0658,"lon":91.39501},{"name":"Sylhet","bn":"সিলেট","lat":24.8898,"lon":91.86979},{"name":"Tangail","bn":"টাঙ্গাইল","lat":24.26414,"lon":89.91803},{"name":"Thakurgaon","bn":"ঠাকুরগাঁও","lat":26.03369,"lon":88.46168}]